{
    "label": "Residential Buildings",
    "visible": false,
    "items": [
      { "label": "永安家塾", "lat": 23.108895, "lng": 113.437802 },
  { "label": "冠英家塾旧址", "lat": 23.123504, "lng": 113.266766 },
  { "label": "双溪别墅", "lat": 23.19637, "lng": 113.308289 },
  { "label": "三元里大街二十七巷9号民居", "lat": 23.158581, "lng": 113.261146 },
  { "label": "宝龙直街10号民居", "lat": 23.10218, "lng": 113.26965 },
  { "label": "宝龙直街18、20号民居", "lat": 23.102537, "lng": 113.260447 },
  { "label": "福居里3号民居", "lat": 23.105898, "lng": 113.259862 },
  { "label": "龙福东二巷2号民居", "lat": 23.092994, "lng": 113.267038 },
  { "label": "龙福东一巷4号民居", "lat": 23.103547, "lng": 113.259155 },
  { "label": "顾庐、康庐", "lat": 23.103471, "lng": 113.259044 },
  { "label": "龙延里2-1号民居", "lat": 22.617597, "lng": 110.154556 },
  { "label": "龙骧大街11号民居", "lat": 23.103414, "lng": 113.260509 },
  { "label": "龙骧大街12、14号民居", "lat": 23.102172, "lng": 113.269735 },
  { "label": "龙骧大街15号民居", "lat": 23.101523, "lng": 113.261813 },
  { "label": "龙骧大街16号民居", "lat": 23.102845, "lng": 113.259992 },
  { "label": "龙骧大街19号民居", "lat": 23.102988, "lng": 113.260298 },
  { "label": "龙骧大街21号民居", "lat": 23.101651, "lng": 113.261782 },
  { "label": "龙骧大街22号民居", "lat": 23.102573, "lng": 113.260056 },
  { "label": "龙骧大街24号民居", "lat": 23.102514, "lng": 113.260064 },
  { "label": "龙骧大街3号民居", "lat": 23.103204, "lng": 113.260142 },
  { "label": "龙骧大街4号民居", "lat": 23.103218, "lng": 113.260397 },
  { "label": "龙骧大街8、10号民居", "lat": 23.10218, "lng": 113.26965 },
  { "label": "关山月旧居", "lat": 23.093763, "lng": 113.277462 },
  { "label": "大塘村西华大街10号民居", "lat": 23.089533, "lng": 113.263902 },
  { "label": "昆仑三街10、12号民居", "lat": 23.102175, "lng": 113.269695 },
  { "label": "昆仑三街29、29-1、29-2号民居", "lat": 23.098259, "lng": 113.258112 },
  { "label": "肇昌堂", "lat": 23.059144, "lng": 113.312318 },
  { "label": "梅园西路38号民居", "lat": 23.093974, "lng": 113.256174 },
  { "label": "栖栅南街19号民居", "lat": 23.103505, "lng": 113.255396 },
  { "label": "栖栅南街40号民居", "lat": 23.104056, "lng": 113.255345 },
  { "label": "前进路18号民居", "lat": 23.103562, "lng": 113.271735 },
  { "label": "前进路54号-28民居", "lat": 23.099783, "lng": 113.274614 },
  { "label": "前进路54号-30民居", "lat": 23.100231, "lng": 113.274727 },
  { "label": "同庆四街1号民居", "lat": 23.10796, "lng": 113.265824 },
  { "label": "跃龙南27号民居", "lat": 23.108746, "lng": 113.265536 },
  { "label": "溪峡街13、13-1号民居", "lat": 23.103947, "lng": 113.256861 },
  { "label": "溪峡街1号民居", "lat": 23.10334, "lng": 113.25683 },
  { "label": "溪峡街7号民居", "lat": 23.103717, "lng": 113.256848 },
  { "label": "溪峡新街18号民居", "lat": 23.104496, "lng": 113.257102 },
  { "label": "溪峡新街1—13（单号）号民居", "lat": 23.10434, "lng": 113.256767 },
  { "label": "伍家祠道9、11号民居", "lat": 23.103843, "lng": 113.257292 },
  { "label": "蟠龙西1-2号民居", "lat": 23.066978, "lng": 113.186086 },
  { "label": "蟠龙西新巷1号民居", "lat": 23.10525, "lng": 113.263113 },
  { "label": "蟠龙西新巷7、7-1号民居", "lat": 23.10525, "lng": 113.263113 },
  { "label": "同和里18号民居", "lat": 23.100417, "lng": 113.260153 },
  { "label": "存善东横街13号民居", "lat": 22.545915, "lng": 113.381893 },
  { "label": "存善南街4号民居", "lat": 23.119174, "lng": 113.242457 },
  { "label": "存善西街1号民居", "lat": 23.119861, "lng": 113.242475 },
  { "label": "存善正街15、17号民居", "lat": 23.119482, "lng": 113.24243 },
  { "label": "存善正街4、6、8号民居", "lat": 23.119464, "lng": 113.242759 },
  { "label": "宝源路123号民居", "lat": 23.118763, "lng": 113.241065 },
  { "label": "宝源路125号民居", "lat": 23.118795, "lng": 113.241122 },
  { "label": "宝源路127号民居", "lat": 23.118745, "lng": 113.24118 },
  { "label": "宝源路139号民居", "lat": 23.118725, "lng": 113.241592 },
  { "label": "明勤第", "lat": 23.11876, "lng": 113.241584 },
  { "label": "宝源中约11号民居", "lat": 23.119061, "lng": 113.241193 },
  { "label": "宝源中约25号民居", "lat": 23.119135, "lng": 113.240781 },
  { "label": "宝源中约48号民居", "lat": 23.119336, "lng": 113.240243 },
  { "label": "宝源中约54号民居", "lat": 23.119351, "lng": 113.24001 },
  { "label": "宝源中约56号民居", "lat": 23.119358, "lng": 113.239962 },
  { "label": "昌华大街2-2号民居", "lat": 23.115761, "lng": 113.236122 },
  { "label": "昌华大街24号民居", "lat": 23.115827, "lng": 113.234904 },
  { "label": "昌华大街8号后座民居", "lat": 23.115797, "lng": 113.235333 },
  { "label": "昌华庐", "lat": 23.115587, "lng": 113.234622 },
  { "label": "昌华新街12号民居", "lat": 23.115359, "lng": 113.234943 },
  { "label": "昌华新街14号民居", "lat": 23.115359, "lng": 113.234892 },
  { "label": "昌华新街3-1号民居", "lat": 23.115192, "lng": 113.235285 },
  { "label": "昌华新街8、10号民居", "lat": 23.115348, "lng": 113.235063 },
  { "label": "昌华新街9号民居", "lat": 23.115246, "lng": 113.234916 },
  { "label": "多宝街49号民居", "lat": 23.116379, "lng": 113.235945 },
  { "label": "多宝街51号民居", "lat": 23.116378, "lng": 113.235863 },
  { "label": "多宝街58、58-1号民居", "lat": 23.116542, "lng": 113.235603 },
  { "label": "多宝街81号民居", "lat": 23.116429, "lng": 113.23509 },
  { "label": "多宝路183、185号民居", "lat": 23.116667, "lng": 113.239873 },
  { "label": "多宝路189、191号民居", "lat": 23.116653, "lng": 113.240226 },
  { "label": "多宝南横20号民居", "lat": 23.116141, "lng": 113.235267 },
  { "label": "多宝南横38号民居", "lat": 23.11605, "lng": 113.23496 },
  { "label": "多宝南横6-1、6-2号民居", "lat": 23.11612, "lng": 113.23598 },
  { "label": "多宝南横6号民居", "lat": 23.116114, "lng": 113.235974 },
  { "label": "逢源正中约18、20号民居", "lat": 23.120473, "lng": 113.239308 },
  { "label": "鸣谦里9号民居", "lat": 23.116555, "lng": 113.251259 },
  { "label": "和平中路114号民居", "lat": 23.1115, "lng": 113.246503 },
  { "label": "和息里27号民居", "lat": 23.110619, "lng": 113.244126 },
  { "label": "民治大街32号民居", "lat": 23.09873, "lng": 113.23747 },
  { "label": "民治大街34号民居", "lat": 23.09901, "lng": 113.23757 },
  { "label": "富善西街15号民居", "lat": 23.11277, "lng": 113.247817 },
  { "label": "富善西街19号民居", "lat": 23.112927, "lng": 113.247773 },
  { "label": "富善一巷2-2、2-3号民居", "lat": 23.112472, "lng": 113.248106 },
  { "label": "怀远驿37号民居", "lat": 23.111981, "lng": 113.248774 },
  { "label": "怀远驿42号民居", "lat": 23.111981, "lng": 113.248774 },
  { "label": "冼基东19号民居", "lat": 23.111981, "lng": 113.248774 },
  { "label": "耀华大街11号民居", "lat": 23.118601, "lng": 113.24518 },
  { "label": "耀华大街13、13-1号民居", "lat": 23.11865, "lng": 113.245185 },
  { "label": "耀华大街15、15-1号民居", "lat": 23.118699, "lng": 113.24519 },
  { "label": "耀华大街17、19号民居", "lat": 23.118748, "lng": 113.245195 },
  { "label": "耀华大街1、3号民居", "lat": 23.118403, "lng": 113.245183 },
  { "label": "耀华大街20号民居", "lat": 23.118727, "lng": 113.245167 },
  { "label": "耀华大街23号民居", "lat": 23.118706, "lng": 113.245139 },
  { "label": "耀华大街24、24-1号民居", "lat": 23.118698, "lng": 113.24513 },
  { "label": "耀华大街28、28-1号民居", "lat": 23.11867, "lng": 113.245093 },
  { "label": "耀华大街30号民居", "lat": 23.118656, "lng": 113.245075 },
  { "label": "耀华大街32号民居", "lat": 23.118642, "lng": 113.245056 },
  { "label": "耀华大街9、9-1号民居", "lat": 23.118559, "lng": 113.245186 },
  { "label": "粤华西一街18、20号民居", "lat": 21.643599, "lng": 110.92898 },
  { "label": "民兴里2、4、6号民居", "lat": 23.119185, "lng": 113.261895 },
  { "label": "雅荷塘69号民居", "lat": 23.129088, "lng": 113.275981 },
  { "label": "东皋大道11号院民居", "lat": 23.128463, "lng": 113.281971 },
  { "label": "东皋二横路3、5号民居", "lat": 23.129062, "lng": 113.281999 },
  { "label": "东皋二横路4号民居", "lat": 23.129062, "lng": 113.281999 },
  { "label": "东皋二横路6号民居", "lat": 23.129062, "lng": 113.281999 },
  { "label": "东皋二横路8号民居", "lat": 23.129062, "lng": 113.281999 },
  { "label": "东皋一横路14、16号民居", "lat": 23.128463, "lng": 113.281971 },
  { "label": "东皋一横路2号民居", "lat": 23.128371, "lng": 113.281453 },
  { "label": "东皋一横路3号民居", "lat": 23.128463, "lng": 113.281971 },
  { "label": "东皋一横路7号民居", "lat": 23.128463, "lng": 113.281971 },
  { "label": "皋园4号民居", "lat": 23.12847, "lng": 113.281279 },
  { "label": "皋园7号民居", "lat": 23.12847, "lng": 113.281279 },
  { "label": "礼兴街10号民居", "lat": 23.128095, "lng": 113.280113 },
  { "label": "仁兴街2号民居", "lat": 23.12847, "lng": 113.281279 },
  { "label": "义兴园1号民居", "lat": 23.12847, "lng": 113.281279 },
  { "label": "智兴街2号民居", "lat": 23.128962, "lng": 113.281089 },
  { "label": "礼兴街11、13、15号民居", "lat": 23.1281, "lng": 113.28064 },
  { "label": "连云里2、4、6、8号民居", "lat": 23.119711, "lng": 113.26872 },
  { "label": "观绿路10、10-1号民居、广华道1—15号（单号）民居", "lat": 23.118798, "lng": 113.254811 },
  { "label": "观绿路2-2、2-3号民居", "lat": 23.118739, "lng": 113.25561 },
  { "label": "观绿路2-4号民居", "lat": 23.11869, "lng": 113.2554 },
  { "label": "观绿路4-1、4-2号民居", "lat": 23.118725, "lng": 113.255245 },
  { "label": "观绿路6、8号民居", "lat": 23.118683, "lng": 113.255166 },
  { "label": "观绿路7号民居", "lat": 23.118526, "lng": 113.25512 },
  { "label": "观绿新街16号民居", "lat": 23.118664, "lng": 113.254131 },
  { "label": "广华道18号民居", "lat": 23.118664, "lng": 113.254131 },
  { "label": "广华道2、4、6、8号民居", "lat": 22.313372, "lng": 114.178067 },
  { "label": "杏花巷民居", "lat": 23.123184, "lng": 113.257064 },
  { "label": "广福巷1、3号民居", "lat": 23.127817, "lng": 113.26656 },
  { "label": "海珠中路151、153号民居", "lat": 23.121429, "lng": 113.256588 },
  { "label": "海珠中路162、164、166号民居", "lat": 23.120915, "lng": 113.256688 },
  { "label": "豪贤路86号民居", "lat": 23.130353, "lng": 113.275323 },
  { "label": "进步里1号民居", "lat": 23.122257, "lng": 113.258025 },
  { "label": "南濠街42、42-1号民居", "lat": 23.119404, "lng": 113.256584 },
  { "label": "南濠街81-1、81-2、83号民居", "lat": 23.11968, "lng": 113.256529 },
  { "label": "霍芝庭公馆旧址", "lat": 23.126, "lng": 113.262472 },
  { "label": "金城巷1—12号民居", "lat": 23.121911, "lng": 113.260166 },
  { "label": "南朝街1号民居", "lat": 23.124107, "lng": 113.266276 },
  { "label": "模范住宅区旧址农林上路12号", "lat": 23.125134, "lng": 113.297128 },
  { "label": "模范住宅区旧址农林上路14号", "lat": 23.125219, "lng": 113.297128 },
  { "label": "模范住宅区旧址农林上路二横路2号", "lat": 23.125901, "lng": 113.297526 },
  { "label": "模范住宅区旧址农林上路二横路4号", "lat": 23.125889, "lng": 113.297662 },
  { "label": "模范住宅区旧址农林上路二横路6号", "lat": 23.125868, "lng": 113.297806 },
  { "label": "模范住宅区旧址农林上路七横路7号", "lat": 23.128215, "lng": 113.298543 },
  { "label": "模范住宅区旧址农林下路19号", "lat": 23.127157, "lng": 113.295605 },
  { "label": "畸零里5号民居", "lat": 23.116494, "lng": 113.26488 },
  { "label": "启明大马路5号民居", "lat": 23.121351, "lng": 113.293657 },
  { "label": "秦牧旧居", "lat": 23.120852, "lng": 113.293344 },
  { "label": "启明横马路11-2号民居", "lat": 23.121763, "lng": 113.292647 },
  { "label": "启明横马路17号民居", "lat": 23.121386, "lng": 113.292689 },
  { "label": "启明横马路1号民居", "lat": 23.121193, "lng": 113.292493 },
  { "label": "启明四马路11号民居", "lat": 23.121576, "lng": 113.293092 },
  { "label": "启明四马路4号民居", "lat": 23.121577, "lng": 113.293508 },
  { "label": "模范住宅区旧址三育路32号", "lat": 23.129294, "lng": 113.299819 },
  { "label": "模范住宅区旧址三育路44号", "lat": 23.129764, "lng": 113.299751 },
  { "label": "诗书路117、119、121号民居", "lat": 23.120369, "lng": 113.254665 },
  { "label": "诗书路68号民居", "lat": 23.118894, "lng": 113.254603 },
  { "label": "诗书路78号后座民居", "lat": 23.119061, "lng": 113.254631 },
  { "label": "仁亨里15、15-1号民居", "lat": 23.119845, "lng": 113.254532 },
  { "label": "仁亨里1、1-1号民居", "lat": 23.119845, "lng": 113.254353 },
  { "label": "木排横街11号民居", "lat": 23.117704, "lng": 113.266758 },
  { "label": "木排头2、2-1号民居", "lat": 23.118857, "lng": 113.268261 },
  { "label": "木排头57、59、61、63号民居", "lat": 23.118154, "lng": 113.267309 },
  { "label": "宜安里29号民居", "lat": 23.117433, "lng": 113.265962 },
  { "label": "文德路43、43-1号民居", "lat": 23.121624, "lng": 113.272114 },
  { "label": "文德路45、47号民居", "lat": 23.116962, "lng": 113.272559 },
  { "label": "仰忠街14、14-1号民居", "lat": 23.121289, "lng": 113.271033 },
  { "label": "小北路222~228号（双号）民居", "lat": 23.137015, "lng": 113.273386 },
  { "label": "学宫街28、30号民居", "lat": 23.12128, "lng": 113.261719 },
  { "label": "盐运西二巷2号民居", "lat": 23.121325, "lng": 113.265609 },
  { "label": "梧庐", "lat": 23.12143, "lng": 113.265294 },
  { "label": "盐运西一巷18、20号民居", "lat": 23.120894, "lng": 113.265152 },
  { "label": "盐运西一巷13、15号民居", "lat": 23.121167, "lng": 113.265381 },
  { "label": "盐运西一巷14号民居", "lat": 23.12093, "lng": 113.265316 },
  { "label": "盐运西一巷2、2-1、2-2号民居", "lat": 23.12077, "lng": 113.265731 },
  { "label": "盐运西一巷5号民居", "lat": 23.120988, "lng": 113.265595 },
  { "label": "盐运西正街19、21、23、25、27号民居", "lat": 23.121842, "lng": 113.265575 },
  { "label": "盐运西正街1、3、5号民居", "lat": 23.121276, "lng": 113.265723 },
  { "label": "盐运西正街26、28号民居", "lat": 23.121952, "lng": 113.265683 },
  { "label": "越秀北路林克明旧居", "lat": 23.134612, "lng": 113.275094 },
  { "label": "越秀北路78号", "lat": 23.128631, "lng": 113.278769 },
  { "label": "模范住宅区旧址执信南路9号", "lat": 23.125397, "lng": 113.293067 },
  { "label": "纸行路42号民居", "lat": 23.122107, "lng": 113.255201 },
  { "label": "白沙巷10-1号民居", "lat": 23.122038, "lng": 113.254299 },
  { "label": "白沙巷21、21-1号民居", "lat": 23.121681, "lng": 113.254288 },
  { "label": "白沙巷27、29、31号民居", "lat": 23.122006, "lng": 113.253947 },
  { "label": "侨星新街4、6号民居", "lat": 23.121559, "lng": 113.25469 },
  { "label": "侨星新街8—18（双号）号民居", "lat": 23.121566, "lng": 113.254653 },
  { "label": "通宁道14、16、18、20号民居", "lat": 23.123288, "lng": 113.254932 },
  { "label": "通宁道17、19、21、23、25号民居", "lat": 23.123266, "lng": 113.254835 },
  { "label": "通宁道22、24、26号民居", "lat": 23.123364, "lng": 113.2548 },
  { "label": "通宁道2、4号民居", "lat": 23.123283, "lng": 113.25522 },
  { "label": "通宁道6、8、10、12号民居", "lat": 23.123313, "lng": 113.255134 },
  { "label": "通宁道9、11、13、15号民居", "lat": 23.12333, "lng": 113.255088 },
  { "label": "模范住宅区旧址菜园西35号", "lat": 23.125031, "lng": 113.290929 },
  { "label": "中山六路76号民居", "lat": 23.125402, "lng": 113.259081 },
  { "label": "苏鸣一旧居", "lat": 23.124852, "lng": 113.258056 },
  { "label": "玛瑙巷55号民居", "lat": 23.124892, "lng": 113.258054 },
  { "label": "中山三路2号民居", "lat": 23.126675, "lng": 113.286422 },
  { "label": "中山三路4号民居", "lat": 23.126719, "lng": 113.286379 },
  { "label": "模范住宅区旧址梅花村29号", "lat": 23.127492, "lng": 113.30484 },
  { "label": "模范住宅区旧址梅花村34号", "lat": 23.127492, "lng": 113.30484 },
  { "label": "模范住宅区旧址梅花村69号", "lat": 23.12826, "lng": 113.3047 },
  { "label": "咸虾栏14号、侨庆坊1、3号民居", "lat": 23.118477, "lng": 113.27444 },
  { "label": "模范住宅区旧址竹丝岗大马路1号", "lat": 23.127449, "lng": 113.29327 },
  { "label": "模范住宅区旧址竹丝岗二马路14号", "lat": 23.127158, "lng": 113.294139 },
  { "label": "模范住宅区旧址竹丝岗二马路43号", "lat": 23.129056, "lng": 113.296189 },
  { "label": "模范住宅区旧址竹丝岗三马路1号", "lat": 23.126664, "lng": 113.293439 },
  { "label": "模范住宅区旧址竹丝岗四马路1号", "lat": 23.126374, "lng": 113.293567 },
  { "label": "光复南路113号", "lat": 23.114484, "lng": 113.252138 },
  { "label": "光复南路121号", "lat": 23.114684, "lng": 113.252117 },
  { "label": "光复南路139、141、143号", "lat": 23.115091, "lng": 113.251975 },
  { "label": "光复南路145号", "lat": 23.114499, "lng": 113.252183 },
  { "label": "光复南路176号", "lat": 23.115636, "lng": 113.252041 },
  { "label": "光复南路21号", "lat": 23.112871, "lng": 113.252674 },
  { "label": "光复南路26号", "lat": 23.112885, "lng": 113.252914 },
  { "label": "光复南路28号", "lat": 23.112904, "lng": 113.25291 },
  { "label": "光复南路30号", "lat": 23.112925, "lng": 113.252905 },
  { "label": "光复南路32号", "lat": 23.112946, "lng": 113.252903 },
  { "label": "光复南路40号", "lat": 23.113007, "lng": 113.252808 },
  { "label": "光复南路48号", "lat": 23.113263, "lng": 113.252816 },
  { "label": "光复南路50号", "lat": 23.113295, "lng": 113.252809 },
  { "label": "光复南路54号", "lat": 23.11338, "lng": 113.252749 },
  { "label": "光复南路56号", "lat": 23.113394, "lng": 113.252782 },
  { "label": "光复南路68号", "lat": 23.113816, "lng": 113.252619 },
  { "label": "光复南路87号", "lat": 23.114064, "lng": 113.252243 },
  { "label": "光复南路89号", "lat": 23.114098, "lng": 113.252234 },
  { "label": "光复南路99号", "lat": 23.114249, "lng": 113.252187 },
  { "label": "十八甫路107、109、111号", "lat": 23.111922, "lng": 113.247548 },
  { "label": "十八甫路132、134号", "lat": 23.112115, "lng": 113.2469 },
  { "label": "十八甫路136号", "lat": 23.112108, "lng": 113.246838 },
  { "label": "十八甫路33号", "lat": 23.112027, "lng": 113.249472 },
  { "label": "十八甫路55号", "lat": 23.111965, "lng": 113.248985 },
  { "label": "十八甫路82、84号", "lat": 23.112104, "lng": 113.248267 },
  { "label": "十八甫路90号", "lat": 23.112123, "lng": 113.248055 },
  { "label": "十八甫路92号", "lat": 23.112074, "lng": 113.247913 },
  { "label": "十八甫路93号", "lat": 23.111898, "lng": 113.248077 },
  { "label": "十八甫路98号", "lat": 23.112078, "lng": 113.247807 },
  { "label": "沿江西路47号", "lat": 23.10837, "lng": 113.252686 },
  { "label": "杨巷路107号", "lat": 23.114776, "lng": 113.24963 },
  { "label": "杨巷路29、29-2号", "lat": 23.112958, "lng": 113.249815 },
  { "label": "惠福东路401、403号", "lat": 23.120582, "lng": 113.264855 },
  { "label": "惠福东路413、415号", "lat": 23.120662, "lng": 113.265143 },
  { "label": "纸行路11、13、15号", "lat": 23.121336, "lng": 113.254861 },
  { "label": "纸行路41、43、45号", "lat": 23.122652, "lng": 113.255216 },
  { "label": "纸行路56、58、60号", "lat": 23.122411, "lng": 113.255308 },
  { "label": "纸行路59、61、63号", "lat": 23.123033, "lng": 113.25527 },
  { "label": "钟落潭村福龙路129号民居", "lat": 23.386005, "lng": 113.402636 },
  { "label": "梅田村迎龙门楼", "lat": 23.358641, "lng": 113.413964 },
  { "label": "显扬梁公家塾", "lat": 23.048437, "lng": 113.372766 },
  { "label": "大岭村龙津街上达巷1号民居", "lat": 22.985158, "lng": 113.477564 },
  { "label": "大岭村昇平街永福巷2号民居", "lat": 22.985158, "lng": 113.477564 },
  { "label": "大岭村中兴街仁厚一巷8号民居", "lat": 22.985158, "lng": 113.477564 },
  { "label": "贝岗村民居", "lat": 23.052602, "lng": 113.380118 },
  { "label": "庚辉坊北街10号民居", "lat": 22.950782, "lng": 113.443486 },
  { "label": "穗石村西市大街13号民居", "lat": 23.046805, "lng": 113.410209 },
  { "label": "秀发村得月街3号民居", "lat": 23.039571, "lng": 113.420563 },
  { "label": "黄埔村盘石大街13号民居", "lat": 23.090686, "lng": 113.397309 },
  { "label": "黄埔村盘石大街八巷4号民居", "lat": 23.091421, "lng": 113.398256 },
  { "label": "同福西路歧兴中北4-1民居", "lat": 23.102926, "lng": 113.252755 },
  { "label": "洛场村十队21号民居", "lat": 23.424357, "lng": 113.237597 },
  { "label": "平东村平东七队141号民居", "lat": 23.425514, "lng": 113.29199 },
  { "label": "平东村平东四队59号民居", "lat": 23.431137, "lng": 113.28859 },
  { "label": "利明别墅", "lat": 23.426236, "lng": 113.295192 },
  { "label": "大同别墅", "lat": 23.384564, "lng": 113.258936 },
  { "label": "十五甫正街18号之一民居", "lat": 23.115629, "lng": 113.240936 },
  { "label": "逢源路莲塘二巷13号民居", "lat": 23.118211, "lng": 113.240228 },
  { "label": "九佛人民公社礼堂旧址", "lat": 23.353943, "lng": 113.521179 },
  { "label": "保安南街3号民居", "lat": 23.120022, "lng": 113.30057 },
  { "label": "保安前街13号民居", "lat": 23.120438, "lng": 113.300682 },
  { "label": "龟岗三马路16、18、20号民居", "lat": 23.120662, "lng": 113.293617 },
  { "label": "均益路5号民居", "lat": 23.121521, "lng": 113.291596 },
  { "label": "启明二马路5号民居", "lat": 23.120964, "lng": 113.292375 },
  { "label": "启明二马路6号民居", "lat": 23.120867, "lng": 113.293137 },
  { "label": "横岭村大塘尾家驹家塾", "lat": 23.612785, "lng": 113.483824 },
  { "label": "沙湾镇恒庐", "lat": 22.906841, "lng": 113.338301 },
  { "label": "何炳林故居", "lat": 22.907173, "lng": 113.335969 },
  { "label": "新民十一街22、24号民居", "lat": 23.09399, "lng": 113.25397 },
  { "label": "新民十一街4、6号民居", "lat": 23.093581, "lng": 113.254067 },
  { "label": "南福安街4号后座民居", "lat": 23.105028, "lng": 113.255301 },
  { "label": "栖栅南街26、28号民居", "lat": 23.103996, "lng": 113.254849 },
  { "label": "栖栅南街2号民居", "lat": 23.103594, "lng": 113.254789 },
  { "label": "栖栅南街52号民居", "lat": 23.103479, "lng": 113.255227 },
  { "label": "栖栅南街6号民居", "lat": 23.104074, "lng": 113.255881 },
  { "label": "朗头村农家乐里13号民居", "lat": 23.352072, "lng": 113.075299 },
  { "label": "朗头村农家乐里24号民居", "lat": 23.352072, "lng": 113.075299 },
  { "label": "正吉坊康乐里1号民居", "lat": 23.073367, "lng": 113.407578 },
  { "label": "宝源路63号民居", "lat": 23.11894, "lng": 113.238652 },
  { "label": "宝源路70、72号及后座民居", "lat": 23.118797, "lng": 113.238495 },
  { "label": "宝源路73、75号民居", "lat": 23.118903, "lng": 113.239123 },
  { "label": "宝源路85号民居", "lat": 23.118864, "lng": 113.239756 },
  { "label": "豆栏上街12号民居", "lat": 23.11201, "lng": 113.253006 },
  { "label": "桨栏路102号", "lat": 23.112203, "lng": 113.251176 },
  { "label": "桨栏路56号", "lat": 23.112324, "lng": 113.252252 },
  { "label": "丁颖旧居", "lat": 23.158908, "lng": 113.356424 },
  { "label": "华南农学院巢湖路独立住宅", "lat": 23.154376, "lng": 113.354889 },
  { "label": "东昌大街17号之2民居", "lat": 23.126451, "lng": 113.281192 },
  { "label": "东昌大街26、28号民居", "lat": 23.126166, "lng": 113.281321 },
  { "label": "东昌大街34、36号民居", "lat": 23.126185, "lng": 113.280865 },
  { "label": "麦栏街2号民居", "lat": 23.118672, "lng": 113.270838 },
  { "label": "仁生里44号民居", "lat": 23.129026, "lng": 113.271884 },
  { "label": "华安楼", "lat": 23.116452, "lng": 113.266759 },
  { "label": "小东营19号（锦荣街5号民居）", "lat": 23.129883, "lng": 113.270178 },
  { "label": "小东营38号民居", "lat": 23.129597, "lng": 113.270067 },
  { "label": "越华路47号民居", "lat": 23.129069, "lng": 113.270209 },
  { "label": "越秀北路408号民居", "lat": 23.134946, "lng": 113.274441 },
  { "label": "红线女旧居", "lat": 23.139514, "lng": 113.291351 },
  { "label": "詠沂别苑", "lat": 23.329836, "lng": 113.156881 },
  { "label": "张升楼", "lat": 22.825229, "lng": 113.506211 },
  { "label": "黄阁镇猎德上巷1号民居", "lat": 22.825829, "lng": 113.493671 },
  { "label": "黄阁镇猎德上巷3号民居", "lat": 22.825829, "lng": 113.493671 },
  { "label": "黄阁镇大塘西街34号民居", "lat": 22.825829, "lng": 113.493671 },
  { "label": "美友家塾", "lat": 22.965933, "lng": 113.394927 },
  { "label": "朗存家塾", "lat": 23.033288, "lng": 113.419668 },
  { "label": "中约街石狮巷24号民居", "lat": 22.98502, "lng": 113.397329 },
  { "label": "桂桂坊大街九市巷6号民居", "lat": 23.020294, "lng": 113.360667 },
  { "label": "海傍后街78号民居", "lat": 22.932232, "lng": 113.362852 },
  { "label": "耀滔家塾", "lat": 22.982491, "lng": 113.309122 },
  { "label": "启明一马路9号民居", "lat": 23.120664, "lng": 113.292943 },
  { "label": "耀庐", "lat": 23.122343, "lng": 113.294638 },
  { "label": "文德路75号", "lat": 23.123689, "lng": 113.27144 },
  { "label": "保宁路1号民居", "lat": 23.11971, "lng": 113.301303 },
  { "label": "春园后街12号民居", "lat": 23.118614, "lng": 113.295604 },
  { "label": "培正二横路22号民居", "lat": 23.119264, "lng": 113.298135 },
  { "label": "新河浦二横路29号", "lat": 23.116688, "lng": 113.300661 },
  { "label": "新河浦三横路1号民居", "lat": 23.116957, "lng": 113.29805 },
  { "label": "恤孤院路12号民居", "lat": 23.118396, "lng": 113.296778 },
  { "label": "农林上路二横路17、19号民居", "lat": 23.125838, "lng": 113.298844 },
  { "label": "六和新街10、12号民居", "lat": 23.121164, "lng": 113.273381 },
  { "label": "六和新街14号民居", "lat": 23.121164, "lng": 113.273381 },
  { "label": "六和新街1、3号民居", "lat": 23.121164, "lng": 113.273381 },
  { "label": "六和新街2、4号民居", "lat": 23.121164, "lng": 113.273381 },
  { "label": "六和新街6、8号民居", "lat": 23.121164, "lng": 113.273381 },
  { "label": "六和新街9、11号民居", "lat": 23.121164, "lng": 113.273381 },
  { "label": "培真路二巷13号民居", "lat": 23.078471, "lng": 113.244879 },
  { "label": "逢庆中约12、12-1、12-2号民居", "lat": 23.114685, "lng": 113.236153 },
  { "label": "逢源正街91号民居", "lat": 23.11821, "lng": 113.236267 },
  { "label": "泮塘五约直街41号民居", "lat": 23.122502, "lng": 113.233706 },
  { "label": "多宝路179号民居", "lat": 23.116668, "lng": 113.239869 },
  { "label": "多宝坊14-4、14-5号民居", "lat": 23.11555, "lng": 113.240172 },
  { "label": "多宝街24-1号民居", "lat": 23.116421, "lng": 113.237453 },
  { "label": "逢源中约22号民居", "lat": 23.120473, "lng": 113.239308 },
  { "label": "多宝坊21、21-1号民居", "lat": 23.11555, "lng": 113.240172 },
  { "label": "恩宁西街16、18号民居", "lat": 23.113736, "lng": 113.239163 },
  { "label": "吉祥坊52号民居", "lat": 23.114394, "lng": 113.240169 },
  { "label": "和平西路134号", "lat": 23.112008, "lng": 113.240759 },
  { "label": "宝源路87号民居", "lat": 23.11886, "lng": 113.239827 },
  { "label": "宝源中约38、38-1、40、40-1号民居", "lat": 23.119323, "lng": 113.24047 },
  { "label": "幸福二巷新街7、9号民居", "lat": 23.122639, "lng": 113.24388 },
  { "label": "小甫园18-1号民居", "lat": 23.116845, "lng": 113.249957 },
  { "label": "西林巷18、20号民居", "lat": 23.113434, "lng": 113.242773 },
  { "label": "和平西路50、50-1、50-2、50-3、50-5、50-6、50-7号民居", "lat": 23.111469, "lng": 113.244869 },
  { "label": "和平中路12~20号（双号）民居", "lat": 23.111702, "lng": 113.249417 },
  { "label": "和平中路66、68、70-1、70号民居", "lat": 23.111656, "lng": 113.248209 },
  { "label": "富善三巷23号民居", "lat": 23.113005, "lng": 113.248183 },
  { "label": "光雅里74、76、78、80号民居", "lat": 23.113493, "lng": 113.246569 },
  { "label": "光雅里82、84、86、88号民居", "lat": 23.113479, "lng": 113.246371 },
  { "label": "十七甫北11号民居", "lat": 23.112292, "lng": 113.24975 },
  { "label": "少昆仑蟾宫女旧居", "lat": 23.117033, "lng": 113.245246 },
  { "label": "李禄超旧居", "lat": 23.11568, "lng": 113.244396 },
  { "label": "德昌堂旧址", "lat": 23.112917, "lng": 113.246187 },
  { "label": "永安公司旧址", "lat": 23.114911, "lng": 113.249615 },
  { "label": "豆栏上街14、16号民居", "lat": 23.111348, "lng": 113.253055 },
  { "label": "扬仁东11、13号民居", "lat": 23.113874, "lng": 113.251592 },
  { "label": "扬仁中13号民居", "lat": 23.114821, "lng": 113.252172 },
  { "label": "和平东路39、41号民居", "lat": 23.111798, "lng": 113.251313 },
  { "label": "和平东路43、45号民居", "lat": 23.111689, "lng": 113.252204 },
  { "label": "和平东路54号民居", "lat": 23.111894, "lng": 113.25203 },
  { "label": "和平东路57号民居", "lat": 23.111657, "lng": 113.252007 },
  { "label": "和平东路61号民居", "lat": 23.111646, "lng": 113.25192 },
  { "label": "和平东路62、64号民居", "lat": 23.111877, "lng": 113.251884 },
  { "label": "和平东路65、67号民居", "lat": 23.111627, "lng": 113.251833 },
  { "label": "豆栏上街5号民居", "lat": 23.111888, "lng": 113.253394 },
  { "label": "故衣街39号民居", "lat": 23.111706, "lng": 113.252479 },
  { "label": "和平中路25、27、29号民居", "lat": 23.111485, "lng": 113.249433 },
  { "label": "沿江西路33号民居", "lat": 23.10723, "lng": 113.251459 },
  { "label": "荣华楼", "lat": 23.122026, "lng": 113.250132 },
  { "label": "龙津东路719-1、719-2、719-3、719-4号民居", "lat": 23.12249, "lng": 113.249069 },
  { "label": "美华后街7-3号民居", "lat": 23.143029, "lng": 113.23756 },
  { "label": "西增路30号民居", "lat": 23.143726, "lng": 113.239709 },
  { "label": "联鹤大街10、10-1号民居", "lat": 23.098588, "lng": 113.257391 },
  { "label": "联鹤大街6号民居", "lat": 23.098662, "lng": 113.257238 },
  { "label": "兴隆新街1号民居", "lat": 22.98648, "lng": 113.880386 },
  { "label": "德和南约18号民居", "lat": 23.101627, "lng": 113.249685 },
  { "label": "洪德四巷27、29号民居", "lat": 23.101758, "lng": 113.251511 },
  { "label": "洪德四巷31、33号民居", "lat": 23.101932, "lng": 113.251328 },
  { "label": "宜兴里9号民居", "lat": 23.100076, "lng": 113.251973 },
  { "label": "基立南街15号民居", "lat": 23.102847, "lng": 113.275388 },
  { "label": "广东省昆虫研究所", "lat": 23.092844, "lng": 113.294334 },
  { "label": "颐乐家塾", "lat": 23.182755, "lng": 113.522842 },
  { "label": "凌希天故居", "lat": 23.07133, "lng": 113.410196 },
  { "label": "深井德星里2号民居", "lat": 23.107746, "lng": 113.450983 },
  { "label": "黄沙塘大村九巷民居", "lat": 23.407488, "lng": 113.055066 },
  { "label": "黄沙塘大村九巷31民居", "lat": 23.407488, "lng": 113.055066 },
  { "label": "新屋庄杨氏孖楼（兄弟）", "lat": 23.420194, "lng": 113.200926 },
  { "label": "杨氏更楼", "lat": 23.420194, "lng": 113.200926 },
  { "label": "洛场村三队民居", "lat": 23.410316, "lng": 113.256926 },
  { "label": "礼耕家塾", "lat": 23.342885, "lng": 113.091623 },
  { "label": "叙伦堂", "lat": 22.82582, "lng": 113.503299 },
  { "label": "新窑村辑瑞堂", "lat": 23.369651, "lng": 113.82431 },
  { "label": "夏街路18号民居", "lat": 23.284983, "lng": 113.836165 },
  { "label": "邓村石屋建筑群", "lat": 23.470711, "lng": 113.819206 },
  { "label": "麻车村宁远楼", "lat": 23.144172, "lng": 113.828939 },
  { "label": "黄屋大戏院", "lat": 23.471064, "lng": 113.934698 },
  { "label": "莲舫家塾", "lat": 23.58596, "lng": 113.367523 },
  { "label": "吕中村司马第", "lat": 23.546277, "lng": 113.585226 },
  { "label": "木棉村德仁公楼", "lat": 23.546277, "lng": 113.585226 },
  { "label": "木棉村墨西楼", "lat": 23.546277, "lng": 113.585226 },
  { "label": "刘氏宗祠敦厚堂", "lat": 23.546277, "lng": 113.585226 },
  { "label": "银林村民居", "lat": 23.546277, "lng": 113.585226 }
    ]
  }